[{"year_g9":2012,"names":"Alamo Heights High School","lat":29.4914,"lon":-98.4659,"district_g9":15901,"size":352,"hsgrad_4":0.8892,"ps_enroll_t5":0.5284,"grad12_ba":0.0142},{"year_g9":2012,"names":"G.W. Brackenridge High School","lat":29.4047,"lon":-98.4876,"district_g9":15907,"size":515,"hsgrad_4":0.7786,"ps_enroll_t5":0.3767,"grad12_ba":0.0097},{"year_g9":2012,"names":"Louis D. Brandeis High School","lat":29.5654,"lon":-98.6459,"district_g9":15915,"size":556,"hsgrad_4":0.8435,"ps_enroll_t5":0.6223,"grad12_ba":0.009},{"year_g9":2012,"names":"William J. Brennan High School","lat":29.4585,"lon":-98.7252,"district_g9":15915,"size":485,"hsgrad_4":0.8536,"ps_enroll_t5":0.5464,"grad12_ba":0.0103},{"year_g9":2012,"names":"Brooks Academy of Science and Engineering","lat":29.3383,"lon":-98.4266,"district_g9":15830,"size":104,"hsgrad_4":0.8558,"ps_enroll_t5":0.5288,"grad12_ba":0.0481},{"year_g9":2012,"names":"Luther Burbank High School","lat":29.3929,"lon":-98.5092,"district_g9":15907,"size":345,"hsgrad_4":0.7652,"ps_enroll_t5":0.4203,"grad12_ba":0.0145},{"year_g9":2012,"names":"Winston Churchill High School","lat":29.5495,"lon":-98.5141,"district_g9":15910,"size":714,"hsgrad_4":0.8529,"ps_enroll_t5":0.5742,"grad12_ba":0.0098},{"year_g9":2012,"names":"East Central High School","lat":29.3525,"lon":-98.2965,"district_g9":15911,"size":730,"hsgrad_4":0.8315,"ps_enroll_t5":0.4192,"grad12_ba":0.0068},{"year_g9":2012,"names":"Thomas Edison High School","lat":29.4721,"lon":-98.505,"district_g9":15907,"size":383,"hsgrad_4":0.7128,"ps_enroll_t5":0.376,"grad12_ba":0.0131},{"year_g9":2012,"names":"Fox Technical High School","lat":29.4325,"lon":-98.495,"district_g9":15907,"size":100,"hsgrad_4":0.91,"ps_enroll_t5":0.62,"grad12_ba":0.05},{"year_g9":2012,"names":"Harlandale High School","lat":29.3644,"lon":-98.5018,"district_g9":15904,"size":482,"hsgrad_4":0.7739,"ps_enroll_t5":0.4046,"grad12_ba":0.0104},{"year_g9":2012,"names":"Harmony Science Academy - San Antonio","lat":29.4312,"lon":-98.653,"district_g9":15828,"size":65,"hsgrad_4":0.6923,"ps_enroll_t5":0.5385,"grad12_ba":0.0769},{"year_g9":2012,"names":"Health Careers High School","lat":29.5205,"lon":-98.5785,"district_g9":15915,"size":224,"hsgrad_4":0.9777,"ps_enroll_t5":0.8259,"grad12_ba":0.0402},{"year_g9":2012,"names":"Highlands High School","lat":29.3882,"lon":-98.4426,"district_g9":15907,"size":478,"hsgrad_4":0.6339,"ps_enroll_t5":0.2782,"grad12_ba":0.0105},{"year_g9":2012,"names":"Oliver Wendell Holmes High School","lat":29.4653,"lon":-98.6167,"district_g9":15915,"size":665,"hsgrad_4":0.7805,"ps_enroll_t5":0.3459,"grad12_ba":0.0075},{"year_g9":2012,"names":"Sam Houston High School","lat":29.4254,"lon":-98.3992,"district_g9":15907,"size":251,"hsgrad_4":0.6494,"ps_enroll_t5":0.239,"grad12_ba":0.0199},{"year_g9":2012,"names":"International School-Americas","lat":29.5065,"lon":-98.5156,"district_g9":15910,"size":119,"hsgrad_4":0.9244,"ps_enroll_t5":0.6134,"grad12_ba":0.042},{"year_g9":2012,"names":"John Jay High School","lat":29.4194,"lon":-98.6401,"district_g9":15915,"size":801,"hsgrad_4":0.7653,"ps_enroll_t5":0.3733,"grad12_ba":0.0062},{"year_g9":2012,"names":"Thomas Jefferson High School","lat":29.4652,"lon":-98.5396,"district_g9":15907,"size":421,"hsgrad_4":0.7316,"ps_enroll_t5":0.3397,"grad12_ba":0.0119},{"year_g9":2012,"names":"Johnson High School","lat":29.6574,"lon":-98.4351,"district_g9":15910,"size":679,"hsgrad_4":0.891,"ps_enroll_t5":0.651,"grad12_ba":0.0118},{"year_g9":2012,"names":"Judson Early College Academy","lat":29.5484,"lon":-98.3257,"district_g9":15916,"size":130,"hsgrad_4":0.9615,"ps_enroll_t5":0.7077,"grad12_ba":0.1923},{"year_g9":2012,"names":"Judson High School","lat":29.5107,"lon":-98.3082,"district_g9":15916,"size":874,"hsgrad_4":0.7529,"ps_enroll_t5":0.3696,"grad12_ba":0.0057},{"year_g9":2012,"names":"Wagner High School","lat":29.4566,"lon":-98.3569,"district_g9":15916,"size":562,"hsgrad_4":0.7135,"ps_enroll_t5":0.2633,"grad12_ba":0.0089},{"year_g9":2012,"names":"John F. Kennedy High School","lat":29.3955,"lon":-98.5572,"district_g9":15905,"size":348,"hsgrad_4":0.7701,"ps_enroll_t5":0.3103,"grad12_ba":0.0144},{"year_g9":2012,"names":"KIPP University Prep High School","lat":29.4086,"lon":-98.5065,"district_g9":15826,"size":81,"hsgrad_4":0.8889,"ps_enroll_t5":0.6296,"grad12_ba":0.0617},{"year_g9":2012,"names":"Sidney Lanier High School","lat":29.4218,"lon":-98.5159,"district_g9":15907,"size":459,"hsgrad_4":0.6754,"ps_enroll_t5":0.268,"grad12_ba":0.0109},{"year_g9":2012,"names":"Legacy of Educational Excellence (LEE) High School","lat":29.5065,"lon":-98.5156,"district_g9":15910,"size":608,"hsgrad_4":0.7138,"ps_enroll_t5":0.3586,"grad12_ba":0.0082},{"year_g9":2012,"names":"Douglas MacArthur High School","lat":29.5293,"lon":-98.4412,"district_g9":15910,"size":669,"hsgrad_4":0.8072,"ps_enroll_t5":0.435,"grad12_ba":0.0075},{"year_g9":2012,"names":"James Madison High School","lat":29.5835,"lon":-98.3914,"district_g9":15910,"size":812,"hsgrad_4":0.7993,"ps_enroll_t5":0.4704,"grad12_ba":0.0086},{"year_g9":2012,"names":"John Marshall High School","lat":29.5134,"lon":-98.6192,"district_g9":15915,"size":642,"hsgrad_4":0.8146,"ps_enroll_t5":0.4829,"grad12_ba":0.0078},{"year_g9":2012,"names":"Mc Collum High School","lat":29.3429,"lon":-98.5119,"district_g9":15904,"size":468,"hsgrad_4":0.8355,"ps_enroll_t5":0.4487,"grad12_ba":0.0107},{"year_g9":2012,"names":"Memorial High School","lat":29.4467,"lon":-98.5644,"district_g9":15905,"size":316,"hsgrad_4":0.6551,"ps_enroll_t5":0.2911,"grad12_ba":0.0158},{"year_g9":2012,"names":"Randolph High School","lat":29.5213,"lon":-98.2922,"district_g9":15906,"size":74,"hsgrad_4":0.7432,"ps_enroll_t5":0.5,"grad12_ba":0.0676},{"year_g9":2012,"names":"Ronald Reagan High School","lat":29.619,"lon":-98.4887,"district_g9":15910,"size":658,"hsgrad_4":0.8906,"ps_enroll_t5":0.6626,"grad12_ba":0.0137},{"year_g9":2012,"names":"Robert G Cole Junior Senior HS","lat":29.4784,"lon":-98.4212,"district_g9":15914,"size":114,"hsgrad_4":0.5965,"ps_enroll_t5":0.4211,"grad12_ba":0.0439},{"year_g9":2012,"names":"Theodore Roosevelt High School","lat":29.5084,"lon":-98.3897,"district_g9":15910,"size":722,"hsgrad_4":0.7078,"ps_enroll_t5":0.3532,"grad12_ba":0.0069},{"year_g9":2012,"names":"Sandra Day O'Connor High School","lat":29.5593,"lon":-98.6866,"district_g9":15915,"size":792,"hsgrad_4":0.851,"ps_enroll_t5":0.5909,"grad12_ba":0.0126},{"year_g9":2012,"names":"School of Science and Technology","lat":29.5153,"lon":-98.4437,"district_g9":15827,"size":67,"hsgrad_4":0.791,"ps_enroll_t5":0.5522,"grad12_ba":0.0746},{"year_g9":2012,"names":"Somerset High School","lat":29.2292,"lon":-98.6517,"district_g9":15909,"size":243,"hsgrad_4":0.7407,"ps_enroll_t5":0.3416,"grad12_ba":0.0206},{"year_g9":2012,"names":"South San Antonio High School","lat":29.3509,"lon":-98.5487,"district_g9":15908,"size":661,"hsgrad_4":0.7065,"ps_enroll_t5":0.3419,"grad12_ba":0.0076},{"year_g9":2012,"names":"Southside High School","lat":29.2406,"lon":-98.4727,"district_g9":15917,"size":318,"hsgrad_4":0.7516,"ps_enroll_t5":0.3868,"grad12_ba":0.0157},{"year_g9":2012,"names":"Southwest High School","lat":29.3087,"lon":-98.6732,"district_g9":15912,"size":865,"hsgrad_4":0.7965,"ps_enroll_t5":0.3607,"grad12_ba":0.0058},{"year_g9":2012,"names":"John Paul Stevens High School","lat":29.4403,"lon":-98.684,"district_g9":15915,"size":695,"hsgrad_4":0.7683,"ps_enroll_t5":0.4432,"grad12_ba":0.0072},{"year_g9":2012,"names":"Clark High School","lat":29.5658,"lon":-98.5807,"district_g9":15915,"size":652,"hsgrad_4":0.8328,"ps_enroll_t5":0.5736,"grad12_ba":0.0184},{"year_g9":2012,"names":"Travis Early College High School","lat":29.4473,"lon":-98.4948,"district_g9":15907,"size":91,"hsgrad_4":0.9231,"ps_enroll_t5":0.6923,"grad12_ba":0.1209},{"year_g9":2012,"names":"Stacey Jr-Sr High School","lat":29.3777,"lon":-98.6139,"district_g9":15913,"size":57,"hsgrad_4":0.614,"ps_enroll_t5":0.4035,"grad12_ba":0.0877},{"year_g9":2012,"names":"Earl Warren High School","lat":29.4636,"lon":-98.6699,"district_g9":15915,"size":711,"hsgrad_4":0.7876,"ps_enroll_t5":0.4909,"grad12_ba":0.007},{"year_g9":2012,"names":"William H. Taft High School","lat":29.4976,"lon":-98.7217,"district_g9":15915,"size":671,"hsgrad_4":0.8152,"ps_enroll_t5":0.4635,"grad12_ba":0.0134}]
